City_ID,City,Lat,Lng,Max Temp,Humidity,Cloudiness,Wind Speed,Country,Date,Weather description,Rain inches(last 3 hrs),Snow inches(last 3 hrs)
0,Champasak,14.75,106.0,70.92,39,0,3.04,LA,2020-02-23 15:38:15,clear sky,0.0,0.0
1,Tessalit,20.2,1.01,92.82,7,0,9.04,ML,2020-02-23 15:38:15,clear sky,0.0,0.0
2,Saint-Philippe,-21.36,55.77,80.6,69,75,4.7,RE,2020-02-23 15:38:15,broken clouds,0.0,0.0
3,Ushuaia,-54.8,-68.3,50.0,76,75,4.76,AR,2020-02-23 15:36:57,drizzle,0.0,0.0
4,Luderitz,-26.65,15.16,66.22,79,0,22.62,NA,2020-02-23 15:38:16,clear sky,0.0,0.0
5,Biltine,14.53,20.92,93.56,6,0,10.76,TD,2020-02-23 15:38:16,clear sky,0.0,0.0
6,Bethel,41.37,-73.41,48.99,30,1,6.93,US,2020-02-23 15:38:16,clear sky,0.0,0.0
7,Lazaro Cardenas,17.96,-102.2,77.49,65,0,2.15,MX,2020-02-23 15:38:16,clear sky,0.0,0.0
8,Kapaa,22.08,-159.32,66.2,88,1,6.93,US,2020-02-23 15:38:16,clear sky,0.0,0.0
9,Teguise,29.06,-13.56,73.4,49,90,18.34,ES,2020-02-23 15:35:31,haze,0.0,0.0
10,Thompson,55.74,-97.86,5.0,84,40,5.82,CA,2020-02-23 15:38:17,scattered clouds,0.0,0.0
11,Labuan,5.28,115.24,80.6,83,75,11.41,MY,2020-02-23 15:37:19,broken clouds,0.0,0.0
12,Cervo,43.67,-7.41,71.01,1,0,5.01,ES,2020-02-23 15:38:17,clear sky,0.0,0.0
13,Sao Filipe,14.9,-24.5,67.75,82,100,18.9,CV,2020-02-23 15:38:18,overcast clouds,0.0,0.0
14,Banyo,6.75,11.82,96.8,12,0,11.18,CM,2020-02-23 15:38:18,clear sky,0.0,0.0
15,Amapa,1.0,-52.0,80.51,91,100,4.18,BR,2020-02-23 15:38:18,moderate rain,3.06,0.0
16,Dikson,73.51,80.55,28.87,96,100,24.38,RU,2020-02-23 15:38:18,light snow,0.0,0.25
17,Kilindoni,-7.91,39.67,84.87,75,92,18.5,TZ,2020-02-23 15:38:18,overcast clouds,0.0,0.0
18,Zmeinogorsk,51.16,82.19,15.44,95,98,3.22,RU,2020-02-23 15:38:19,light snow,0.0,0.13
19,Nouadhibou,20.93,-17.03,66.2,77,100,12.75,MR,2020-02-23 15:38:19,overcast clouds,0.0,0.0
20,Dalbandin,28.89,64.41,71.2,26,0,6.38,PK,2020-02-23 15:38:19,clear sky,0.0,0.0
21,Iqaluit,63.75,-68.51,-27.0,60,20,18.34,CA,2020-02-23 15:36:49,few clouds,0.0,0.0
22,Salalah,17.02,54.09,77.0,69,0,4.7,OM,2020-02-23 15:36:04,clear sky,0.0,0.0
23,Cavalcante,-13.8,-47.46,78.42,64,87,3.62,BR,2020-02-23 15:38:20,overcast clouds,0.0,0.0
24,Sao Felix Do Xingu,-6.64,-51.99,81.57,92,99,0.94,BR,2020-02-23 15:38:20,moderate rain,5.75,0.0
25,Mar Del Plata,-38.0,-57.56,79.0,60,0,12.75,AR,2020-02-23 15:34:33,clear sky,0.0,0.0
26,Makakilo City,21.35,-158.09,68.0,100,1,1.77,US,2020-02-23 15:34:45,clear sky,0.0,0.0
27,Saint-Louis,16.33,-15.0,99.07,10,96,8.08,SN,2020-02-23 15:38:21,overcast clouds,0.0,0.0
28,Albany,42.6,-73.97,44.01,44,20,5.82,US,2020-02-23 15:38:21,few clouds,0.0,0.0
29,Olafsvik,64.89,-23.71,32.07,65,100,21.77,IS,2020-02-23 15:38:21,overcast clouds,0.0,0.0
30,Ust-Tsilma,65.44,52.15,30.72,82,100,16.62,RU,2020-02-23 15:38:22,overcast clouds,0.0,0.0
31,Barrow,71.29,-156.79,-27.4,82,20,8.05,US,2020-02-23 15:38:22,few clouds,0.0,0.0
32,Seoul,37.57,126.98,33.8,79,20,1.12,KR,2020-02-23 15:35:30,few clouds,0.0,0.0
33,Shingu,33.73,135.98,47.34,62,0,9.17,JP,2020-02-23 15:38:22,clear sky,0.0,0.0
34,Punta Arenas,-53.15,-70.92,53.6,62,75,32.21,CL,2020-02-23 15:38:22,light intensity shower rain,0.0,0.0
35,Puerto Ayora,-0.74,-90.35,84.2,70,20,9.17,EC,2020-02-23 15:38:23,few clouds,0.0,0.0
36,Butaritari,3.07,172.79,84.61,75,100,16.06,KI,2020-02-23 15:38:23,moderate rain,5.94,0.0
37,Mindelo,16.89,-24.98,77.0,53,20,16.11,CV,2020-02-23 15:38:23,few clouds,0.0,0.0
38,Hilo,19.73,-155.09,68.0,64,75,9.17,US,2020-02-23 15:33:41,broken clouds,0.0,0.0
39,Rikitea,-23.12,-134.97,78.21,66,0,0.92,PF,2020-02-23 15:38:23,light rain,0.25,0.0
40,Catalina,32.51,-110.92,53.01,81,1,7.52,US,2020-02-23 15:38:24,clear sky,0.0,0.0
41,Port Alfred,-33.59,26.89,69.01,73,25,1.99,ZA,2020-02-23 15:38:24,scattered clouds,0.0,0.0
42,Dongsheng,39.82,109.98,34.56,53,67,5.73,CN,2020-02-23 15:38:25,broken clouds,0.0,0.0
43,Jamestown,42.1,-79.24,43.0,43,1,10.29,US,2020-02-23 15:35:29,clear sky,0.0,0.0
44,Qaanaaq,77.48,-69.36,-19.23,90,48,2.33,GL,2020-02-23 15:38:26,scattered clouds,0.0,0.0
45,Olinda,-8.01,-34.86,87.8,66,20,9.17,BR,2020-02-23 15:38:26,few clouds,0.0,0.0
46,Atar,20.52,-13.05,96.35,10,100,19.19,MR,2020-02-23 15:38:26,overcast clouds,0.0,0.0
47,Hauterive,46.09,3.45,69.8,28,80,9.17,FR,2020-02-23 15:37:37,broken clouds,0.0,0.0
48,New Norfolk,-42.78,147.06,57.0,87,94,3.36,AU,2020-02-23 15:34:19,overcast clouds,0.0,0.0
49,Atuona,-9.8,-139.03,80.65,81,1,12.73,PF,2020-02-23 15:38:27,light rain,0.25,0.0
50,Saskylakh,71.92,114.08,7.25,83,100,7.74,RU,2020-02-23 15:38:27,overcast clouds,0.0,0.0
51,San Patricio,19.22,-104.7,73.4,69,20,6.93,MX,2020-02-23 15:38:28,few clouds,0.0,0.0
52,Bluff,-46.6,168.33,55.0,87,68,4.0,NZ,2020-02-23 15:38:28,broken clouds,0.0,0.0
53,Kushiro,42.98,144.37,29.57,71,0,11.21,JP,2020-02-23 15:38:28,clear sky,0.0,0.0
54,Hermanus,-34.42,19.23,82.99,59,0,13.0,ZA,2020-02-23 15:38:28,clear sky,0.0,0.0
55,Lasa,46.62,10.7,59.0,71,40,5.82,IT,2020-02-23 15:38:28,scattered clouds,0.0,0.0
56,Yellowknife,62.46,-114.35,-9.0,76,90,9.17,CA,2020-02-23 15:38:29,light snow,0.0,0.0
57,Bredasdorp,-34.53,20.04,73.99,40,0,20.8,ZA,2020-02-23 15:38:29,clear sky,0.0,0.0
58,Georgetown,5.41,100.34,82.4,69,20,8.05,MY,2020-02-23 15:37:55,few clouds,0.0,0.0
59,Carnarvon,-24.87,113.63,77.0,83,40,10.29,AU,2020-02-23 15:38:29,scattered clouds,0.0,0.0
60,Havre-Saint-Pierre,50.23,-63.6,32.0,86,40,10.29,CA,2020-02-23 15:38:29,scattered clouds,0.0,0.0
61,Busselton,-33.65,115.33,70.0,37,86,17.81,AU,2020-02-23 15:38:30,light rain,0.5,0.0
62,Souillac,-20.52,57.52,80.6,83,75,6.35,MU,2020-02-23 15:38:30,shower rain,0.0,0.0
63,Tazovskiy,67.47,78.7,28.94,90,100,17.56,RU,2020-02-23 15:38:30,overcast clouds,0.0,0.0
64,Verkhnevilyuysk,63.45,120.32,-6.63,99,78,3.31,RU,2020-02-23 15:38:30,broken clouds,0.0,0.0
65,Flinders,-34.58,150.86,70.0,82,100,4.7,AU,2020-02-23 15:38:30,overcast clouds,0.0,0.0
66,Ponta Do Sol,32.67,-17.1,69.8,56,20,19.46,PT,2020-02-23 15:38:31,few clouds,0.0,0.0
67,Lavrentiya,65.58,-171.0,-9.96,83,33,5.32,RU,2020-02-23 15:38:31,scattered clouds,0.0,0.0
68,Mataura,-46.19,168.86,55.0,87,95,4.0,NZ,2020-02-23 15:38:31,overcast clouds,0.0,0.0
69,Kishtwar,33.32,75.77,15.62,66,17,9.01,IN,2020-02-23 15:38:31,few clouds,0.0,0.0
70,Vaini,-21.2,-175.2,78.8,94,20,9.17,TO,2020-02-23 15:38:32,few clouds,0.0,0.0
71,Cape Town,-33.93,18.42,82.99,39,0,23.04,ZA,2020-02-23 15:34:41,clear sky,0.0,0.0
72,Touros,-5.2,-35.46,89.6,62,40,11.41,BR,2020-02-23 15:38:32,scattered clouds,0.0,0.0
73,Langham,52.37,-106.97,8.6,71,5,13.87,CA,2020-02-23 15:38:32,clear sky,0.0,0.0
74,Cascais,38.7,-9.42,75.2,22,0,3.36,PT,2020-02-23 15:38:32,clear sky,0.0,0.0
75,Arraial Do Cabo,-22.97,-42.03,80.6,65,75,9.17,BR,2020-02-23 15:35:50,broken clouds,0.0,0.0
76,Yanam,16.73,82.22,82.4,65,20,6.93,IN,2020-02-23 15:38:33,haze,0.0,0.0
77,Bahia Blanca,-38.72,-62.27,80.74,22,0,20.11,AR,2020-02-23 15:35:18,clear sky,0.0,0.0
78,Hithadhoo,-0.6,73.08,82.9,80,100,10.92,MV,2020-02-23 15:38:34,light rain,0.38,0.0
79,Chara,56.91,118.26,3.81,71,100,3.53,RU,2020-02-23 15:38:34,overcast clouds,0.0,0.0
80,Alugan,12.22,125.48,78.82,85,0,14.09,PH,2020-02-23 15:38:34,light rain,2.25,0.0
81,Florianopolis,-27.61,-48.5,79.0,65,20,11.41,BR,2020-02-23 15:38:35,few clouds,0.0,0.0
82,Lazi,48.07,24.23,34.39,96,100,4.94,UA,2020-02-23 15:38:35,light rain,0.31,0.0
83,Moose Factory,51.26,-80.61,8.6,92,40,10.29,CA,2020-02-23 15:38:35,scattered clouds,0.0,0.0
84,Port Augusta,-32.5,137.77,75.0,68,100,11.41,AU,2020-02-23 15:38:35,overcast clouds,0.0,0.0
85,Khatanga,71.97,102.5,13.05,93,100,14.03,RU,2020-02-23 15:38:36,light snow,0.0,0.5
86,Sitka,57.05,-135.33,35.6,100,90,9.28,US,2020-02-23 15:38:36,moderate rain,0.0,0.0
87,Manica,49.0,-1.17,55.4,93,90,24.16,FR,2020-02-23 15:38:36,overcast clouds,0.0,0.0
88,Goundam,16.41,-3.67,100.15,6,42,16.62,ML,2020-02-23 15:38:36,scattered clouds,0.0,0.0
89,Kyra,49.58,111.98,7.59,80,83,6.69,RU,2020-02-23 15:38:37,broken clouds,0.0,0.0
90,Gat,31.61,34.76,60.8,67,20,10.29,IL,2020-02-23 15:36:03,few clouds,0.0,0.0
91,Urcos,-13.69,-71.62,60.8,51,75,2.24,PE,2020-02-23 15:38:37,broken clouds,0.0,0.0
92,Lebu,-37.62,-73.65,68.83,59,2,7.16,CL,2020-02-23 15:38:37,clear sky,0.0,0.0
93,Tiksi,71.69,128.87,-11.78,88,100,6.89,RU,2020-02-23 15:38:37,overcast clouds,0.0,0.0
94,Bad Aibling,47.86,12.01,61.0,54,100,27.51,DE,2020-02-23 15:36:26,overcast clouds,0.0,0.0
95,Lincoln,40.8,-96.67,42.01,80,1,5.82,US,2020-02-23 15:38:30,clear sky,0.0,0.0
96,Buchanan,5.88,-10.05,90.57,58,100,8.95,LR,2020-02-23 15:38:38,light rain,0.94,0.0
97,Bengkulu,-3.8,102.27,76.06,90,20,3.51,ID,2020-02-23 15:38:38,few clouds,0.0,0.0
98,Puerto Carreno,6.19,-67.49,89.6,52,99,6.93,CO,2020-02-23 15:38:38,overcast clouds,0.0,0.0
99,Pecos,31.42,-103.49,48.99,76,90,4.7,US,2020-02-23 15:38:39,overcast clouds,0.0,0.0
100,Cockburn Town,21.46,-71.14,74.26,76,26,24.07,TC,2020-02-23 15:38:39,light rain,0.19,0.0
101,Hasaki,35.73,140.83,43.0,41,20,10.29,JP,2020-02-23 15:38:39,few clouds,0.0,0.0
102,Inuvik,68.35,-133.72,-4.0,76,90,3.36,CA,2020-02-23 15:38:39,light snow,0.0,0.0
103,Teya,60.38,92.63,12.11,94,79,3.53,RU,2020-02-23 15:38:40,broken clouds,0.0,0.0
104,Ust-Nera,64.57,143.2,-33.59,100,100,1.32,RU,2020-02-23 15:38:40,overcast clouds,0.0,0.0
105,Boma,7.08,-2.17,103.66,18,67,5.68,GH,2020-02-23 15:38:40,broken clouds,0.0,0.0
106,Mahebourg,-20.41,57.7,80.6,83,75,6.35,MU,2020-02-23 15:38:40,shower rain,0.0,0.0
107,Tuktoyaktuk,69.45,-133.04,-5.8,76,90,12.75,CA,2020-02-23 15:38:41,light snow,0.0,0.0
108,Nizwa,22.93,57.53,77.83,35,0,9.1,OM,2020-02-23 15:38:41,clear sky,0.0,0.0
109,Santa Isabel Do Rio Negro,-0.41,-65.02,88.74,64,85,2.66,BR,2020-02-23 15:38:41,light rain,0.75,0.0
110,Tsabong,-26.02,22.4,91.33,20,71,8.12,BW,2020-02-23 15:38:41,broken clouds,0.0,0.0
111,Irbil,36.19,44.01,62.6,55,20,11.41,IQ,2020-02-23 15:38:42,few clouds,0.0,0.0
112,Kudahuvadhoo,2.67,72.89,83.53,81,100,17.07,MV,2020-02-23 15:38:42,light rain,0.5,0.0
113,Pyaozerskiy,65.83,31.17,32.9,97,100,11.36,RU,2020-02-23 15:38:43,overcast clouds,0.0,0.0
114,Cody,44.53,-109.06,28.4,53,1,4.7,US,2020-02-23 15:38:44,clear sky,0.0,0.0
115,Bermeo,43.42,-2.72,70.0,76,0,11.41,ES,2020-02-23 15:35:19,clear sky,0.0,0.0
116,Alofi,-19.06,-169.92,78.8,94,100,8.05,NU,2020-02-23 15:38:44,light rain,1.5,0.0
117,Birjand,32.87,59.22,59.0,21,20,18.34,IR,2020-02-23 15:34:25,few clouds,0.0,0.0
118,Jahanabad,25.22,84.98,69.8,100,40,6.08,IN,2020-02-23 15:38:45,mist,0.0,0.0
119,Narsaq,60.92,-46.05,24.8,68,100,4.7,GL,2020-02-23 15:38:45,light snow,0.0,1.13
120,Vestmanna,62.16,-7.17,35.6,80,82,11.41,FO,2020-02-23 15:38:45,light rain,0.0,0.0
121,Amalapuram,16.58,82.02,82.4,65,20,6.93,IN,2020-02-23 15:38:46,haze,0.0,0.0
122,Soligalich,59.08,42.29,30.58,95,100,11.36,RU,2020-02-23 15:38:46,light snow,0.0,1.19
123,Kidodi,-7.6,37.0,79.09,89,100,3.51,TZ,2020-02-23 15:38:46,light rain,0.56,0.0
124,Plettenberg Bay,-34.05,23.37,64.99,69,0,16.06,ZA,2020-02-23 15:38:46,clear sky,0.0,0.0
125,Mackay,-21.15,149.2,77.0,94,90,9.17,AU,2020-02-23 15:38:47,overcast clouds,0.0,0.0
126,Faanui,-16.48,-151.75,82.09,73,100,9.86,PF,2020-02-23 15:38:47,overcast clouds,0.0,0.0
127,Dalvik,65.97,-18.53,24.82,77,51,19.44,IS,2020-02-23 15:38:47,light snow,0.0,0.19
128,Tucuma,-0.18,-50.05,82.74,82,100,6.67,BR,2020-02-23 15:38:47,overcast clouds,0.0,0.0
129,Tasiilaq,65.61,-37.64,10.4,72,100,3.36,GL,2020-02-23 15:38:47,overcast clouds,0.0,0.0
130,Wamba,8.93,8.6,103.37,8,0,4.85,NG,2020-02-23 15:38:48,clear sky,0.0,0.0
131,Puerto Madryn,-42.77,-65.04,86.86,13,0,8.79,AR,2020-02-23 15:38:48,clear sky,0.0,0.0
132,Nador,35.17,-2.93,62.6,77,75,9.17,MA,2020-02-23 15:38:48,broken clouds,0.0,0.0
133,Norman Wells,65.28,-126.83,5.0,84,90,3.36,CA,2020-02-23 15:37:15,light snow,0.0,0.0
134,Padang,-0.95,100.35,71.51,82,0,5.95,ID,2020-02-23 15:38:49,clear sky,0.0,0.0
135,Poum,-20.23,164.02,81.05,76,39,22.15,NC,2020-02-23 15:38:49,light rain,0.44,0.0
136,Mecca,21.43,39.83,77.54,58,100,13.87,SA,2020-02-23 15:35:15,overcast clouds,0.0,0.0
137,North Battleford,52.78,-108.28,12.2,72,1,4.7,CA,2020-02-23 15:38:49,clear sky,0.0,0.0
138,Nuuk,64.18,-51.72,19.4,62,100,2.24,GL,2020-02-23 15:38:49,overcast clouds,0.0,0.0
139,Hobart,-42.88,147.33,57.0,87,99,3.36,AU,2020-02-23 15:38:50,overcast clouds,0.0,0.0
140,Castro,-24.79,-50.01,70.68,55,100,5.75,BR,2020-02-23 15:38:50,overcast clouds,0.0,0.0
141,Vrangel,42.73,133.08,33.12,65,41,2.46,RU,2020-02-23 15:38:50,scattered clouds,0.0,0.0
142,Pisco,-13.7,-76.22,78.01,30,20,6.93,PE,2020-02-23 15:35:08,few clouds,0.0,0.0
143,San Pedro,14.35,121.02,79.0,74,20,3.36,PH,2020-02-23 15:38:51,few clouds,0.0,0.0
144,Atyrau,47.12,51.88,37.4,74,40,6.71,KZ,2020-02-23 15:34:07,scattered clouds,0.0,0.0
145,Sassandra,4.95,-6.08,88.25,65,86,9.57,CI,2020-02-23 15:38:51,light rain,1.19,0.0
146,Berlevag,70.86,29.09,23.0,85,75,4.7,NO,2020-02-23 15:38:51,broken clouds,0.0,0.0
147,Larnaca,34.92,33.63,60.8,67,20,11.41,CY,2020-02-23 15:38:52,few clouds,0.0,0.0
148,Phan Thiet,10.93,108.1,66.63,75,0,3.89,VN,2020-02-23 15:38:52,clear sky,0.0,0.0
149,Port Elizabeth,-33.92,25.57,68.0,60,40,10.29,ZA,2020-02-23 15:38:52,scattered clouds,0.0,0.0
150,Novyy Yarychiv,49.9,24.31,39.2,93,75,2.24,UA,2020-02-23 15:38:53,light intensity shower rain,0.0,0.0
151,Hamilton,39.18,-84.53,42.01,69,90,4.7,US,2020-02-23 15:35:30,overcast clouds,0.0,0.0
152,Cabo San Lucas,22.89,-109.91,72.0,56,40,6.51,MX,2020-02-23 15:38:53,scattered clouds,0.0,0.0
153,Constitucion,-35.33,-72.42,63.3,67,0,5.93,CL,2020-02-23 15:37:30,clear sky,0.0,0.0
154,Somanda,-3.37,33.95,83.1,59,40,8.16,TZ,2020-02-23 15:38:53,scattered clouds,0.0,0.0
155,Deputatskiy,69.3,139.9,-20.65,96,48,3.18,RU,2020-02-23 15:38:54,scattered clouds,0.0,0.0
156,Ornskoldsvik,63.29,18.72,39.2,64,75,19.46,SE,2020-02-23 15:38:54,broken clouds,0.0,0.0
157,Balkhash,46.84,74.98,16.2,86,17,12.28,KZ,2020-02-23 15:38:54,few clouds,0.0,0.0
158,Domoni,-12.26,44.53,85.78,70,100,5.88,KM,2020-02-23 15:38:54,moderate rain,3.63,0.0
159,Erenhot,43.65,111.98,25.88,73,11,6.91,CN,2020-02-23 15:38:54,few clouds,0.0,0.0
160,Chokurdakh,70.63,147.92,-20.65,99,96,2.82,RU,2020-02-23 15:38:55,overcast clouds,0.0,0.0
161,Mancio Lima,-7.61,-72.9,77.0,88,90,6.93,BR,2020-02-23 15:38:55,overcast clouds,0.0,0.0
162,Sao Joao Da Barra,-21.64,-41.05,80.6,57,75,11.41,BR,2020-02-23 15:38:55,broken clouds,0.0,0.0
163,Upernavik,72.79,-56.15,-16.1,77,0,7.18,GL,2020-02-23 15:38:55,clear sky,0.0,0.0
164,Saldanha,-33.01,17.94,87.8,18,0,24.16,ZA,2020-02-23 15:38:55,clear sky,0.0,0.0
165,Williams Lake,52.14,-122.14,26.6,63,90,10.29,CA,2020-02-23 15:35:02,light shower snow,0.0,0.0
166,Luebo,-5.35,21.42,76.21,79,100,3.76,CD,2020-02-23 15:38:56,overcast clouds,0.0,0.0
167,Avarua,-21.21,-159.78,78.8,94,100,3.36,CK,2020-02-23 15:38:56,light rain,0.0,0.0
168,Yerofey Pavlovich,53.97,121.97,4.8,88,99,3.65,RU,2020-02-23 15:38:56,overcast clouds,0.0,0.0
169,Katsuura,35.13,140.3,46.4,39,20,21.92,JP,2020-02-23 15:38:57,few clouds,0.0,0.0
170,Longyearbyen,78.22,15.64,-2.2,70,20,9.17,SJ,2020-02-23 15:35:13,few clouds,0.0,0.0
171,Charters Towers,-20.1,146.27,73.92,92,100,9.75,AU,2020-02-23 15:38:57,light rain,0.31,0.0
172,Kaeo,-35.1,173.78,57.99,86,0,4.0,NZ,2020-02-23 15:38:57,clear sky,0.0,0.0
173,Sur,22.57,59.53,72.01,67,1,3.11,OM,2020-02-23 15:38:58,clear sky,0.0,0.0
174,Torbay,47.67,-52.73,37.99,69,20,23.04,CA,2020-02-23 15:35:13,few clouds,0.0,0.0
175,Hambantota,6.12,81.12,78.8,100,20,10.29,LK,2020-02-23 15:38:58,few clouds,0.0,0.0
176,Angoche,-16.23,39.91,85.5,85,100,3.11,MZ,2020-02-23 15:38:58,light rain,1.75,0.0
177,Vila Velha,-20.33,-40.29,75.2,83,90,8.05,BR,2020-02-23 15:38:59,light rain,0.0,0.0
178,Sambava,-14.27,50.17,76.03,97,100,0.56,MG,2020-02-23 15:38:59,moderate rain,5.0,0.0
179,Saint-Augustin,51.23,-58.65,30.18,82,100,22.68,CA,2020-02-23 15:38:59,overcast clouds,0.0,0.0
180,Santana Do Livramento,-30.89,-55.53,72.37,48,0,6.6,BR,2020-02-23 15:38:59,clear sky,0.0,0.0
181,Quirinopolis,-18.45,-50.45,81.95,71,100,3.44,BR,2020-02-23 15:39:00,overcast clouds,0.0,0.0
182,Sulangan,11.14,123.72,79.77,80,0,16.98,PH,2020-02-23 15:39:00,light rain,0.44,0.0
183,Mahibadhoo,3.78,72.97,82.62,81,48,21.34,MV,2020-02-23 15:39:00,light rain,1.06,0.0
184,Oyama,36.3,139.8,48.0,41,0,4.0,JP,2020-02-23 15:39:00,clear sky,0.0,0.0
185,Tiarei,-17.53,-149.33,77.0,78,37,2.24,PF,2020-02-23 15:39:01,light rain,0.69,0.0
186,Severo-Kurilsk,50.68,156.12,22.28,96,100,43.2,RU,2020-02-23 15:39:01,snow,0.0,4.13
187,Samur,41.83,48.49,44.53,82,32,9.35,RU,2020-02-23 15:39:01,scattered clouds,0.0,0.0
188,Saint-Pierre,-21.34,55.48,80.6,69,75,4.7,RE,2020-02-23 15:39:02,broken clouds,0.0,0.0
189,Oistins,13.07,-59.53,86.0,70,75,17.22,BB,2020-02-23 15:37:04,shower rain,0.0,0.0
190,Basoko,1.24,23.62,95.14,28,22,2.46,CD,2020-02-23 15:39:06,few clouds,0.0,0.0
191,Ketchikan,55.34,-131.65,39.2,79,90,3.29,US,2020-02-23 15:39:07,overcast clouds,0.0,0.0
192,Esperance,-33.87,121.9,66.2,88,90,14.99,AU,2020-02-23 15:39:07,overcast clouds,0.0,0.0
193,Petukhovo,55.07,67.9,19.87,95,98,6.24,RU,2020-02-23 15:39:07,overcast clouds,0.0,0.0
194,Kaitangata,-46.28,169.85,57.99,80,99,1.99,NZ,2020-02-23 15:39:07,overcast clouds,0.0,0.0
195,Jinchang,38.5,102.17,34.0,31,100,13.4,CN,2020-02-23 15:39:08,overcast clouds,0.0,0.0
196,Jadu,31.95,12.03,60.6,39,0,10.22,LY,2020-02-23 15:39:08,clear sky,0.0,0.0
197,Sawtell,-30.38,153.1,66.99,100,90,8.05,AU,2020-02-23 15:39:08,overcast clouds,0.0,0.0
198,Paamiut,61.99,-49.67,19.15,90,100,13.33,GL,2020-02-23 15:39:08,snow,0.0,1.69
199,Lata,40.16,-8.33,78.01,40,0,8.05,PT,2020-02-23 15:39:08,clear sky,0.0,0.0
200,Russell,32.35,-85.2,51.01,39,1,3.36,US,2020-02-23 15:39:09,clear sky,0.0,0.0
201,Cherskiy,68.75,161.3,-25.83,92,65,6.22,RU,2020-02-23 15:39:01,broken clouds,0.0,0.0
202,Poronaysk,49.22,143.12,15.49,86,99,4.85,RU,2020-02-23 15:39:09,overcast clouds,0.0,0.0
203,Okhotsk,59.38,143.3,-12.26,91,0,4.9,RU,2020-02-23 15:39:09,clear sky,0.0,0.0
204,Vardo,70.37,31.11,24.8,92,75,10.29,NO,2020-02-23 15:39:09,broken clouds,0.0,0.0
205,Zhigansk,66.77,123.37,-15.23,100,93,6.69,RU,2020-02-23 15:39:10,overcast clouds,0.0,0.0
206,Avesta,60.15,16.17,44.6,35,0,18.34,SE,2020-02-23 15:39:10,clear sky,0.0,0.0
207,Lompoc,34.64,-120.46,51.8,81,90,4.7,US,2020-02-23 15:37:15,overcast clouds,0.0,0.0
208,Aklavik,68.22,-135.01,-4.0,76,90,6.93,CA,2020-02-23 15:39:10,overcast clouds,0.0,0.0
209,Manoel Urbano,-8.84,-69.26,80.28,56,68,4.54,BR,2020-02-23 15:39:10,broken clouds,0.0,0.0
210,Lingao,19.91,109.69,68.41,87,0,15.86,CN,2020-02-23 15:39:11,clear sky,0.0,0.0
211,Hyeres,43.12,6.12,70.0,48,0,21.92,FR,2020-02-23 15:39:11,clear sky,0.0,0.0
212,Jumla,29.27,82.18,32.54,85,92,1.68,NP,2020-02-23 15:39:11,light snow,0.0,0.25
213,Los Llanos De Aridane,28.66,-17.92,78.8,29,90,6.93,ES,2020-02-23 15:39:12,haze,0.0,0.0
214,Alta Floresta,-9.88,-56.09,80.6,83,75,4.7,BR,2020-02-23 15:39:12,broken clouds,0.0,0.0
215,Qasigiannguit,68.82,-51.19,1.4,49,0,2.24,GL,2020-02-23 15:39:13,clear sky,0.0,0.0
216,Saint George,37.1,-113.58,42.8,87,1,6.58,US,2020-02-23 15:36:40,clear sky,0.0,0.0
217,Dingle,11.0,122.67,73.2,88,24,13.11,PH,2020-02-23 15:39:13,light rain,0.13,0.0
218,Tevaitoa,-16.78,-151.5,81.97,74,100,9.06,PF,2020-02-23 15:39:13,overcast clouds,0.0,0.0
219,Sinjar,36.32,41.88,55.06,69,0,2.59,IQ,2020-02-23 15:39:14,clear sky,0.0,0.0
220,Codrington,-38.27,141.97,61.45,85,98,14.18,AU,2020-02-23 15:39:14,overcast clouds,0.0,0.0
221,Talagang,32.93,72.42,62.24,44,0,3.02,PK,2020-02-23 15:39:14,clear sky,0.0,0.0
222,Evensk,61.95,159.23,-3.91,96,100,6.46,RU,2020-02-23 15:39:14,light snow,0.0,0.25
223,Turukhansk,65.82,87.98,13.37,94,100,11.54,RU,2020-02-23 15:39:14,light snow,0.0,0.69
224,Encruzilhada Do Sul,-30.54,-52.52,75.88,42,17,5.48,BR,2020-02-23 15:38:25,few clouds,0.0,0.0
225,Mahanoro,-19.9,48.8,81.48,78,67,11.65,MG,2020-02-23 15:39:15,broken clouds,0.0,0.0
226,Hokitika,-42.72,170.97,57.58,84,0,8.34,NZ,2020-02-23 15:39:15,clear sky,0.0,0.0
227,Taltal,-25.4,-70.48,66.07,73,7,6.62,CL,2020-02-23 15:39:15,clear sky,0.0,0.0
228,Palana,59.12,159.97,5.79,68,100,5.46,RU,2020-02-23 15:39:15,overcast clouds,0.0,0.0
229,Manono,-7.3,27.42,80.01,88,100,2.98,CD,2020-02-23 15:39:16,moderate rain,3.25,0.0
230,Meulaboh,4.14,96.13,84.76,69,40,5.55,ID,2020-02-23 15:39:16,scattered clouds,0.0,0.0
231,Nova Borova,50.69,28.63,41.43,65,100,14.65,UA,2020-02-23 15:39:16,overcast clouds,0.0,0.0
232,Haines Junction,60.75,-137.51,4.37,96,100,6.06,CA,2020-02-23 15:39:16,light snow,0.0,1.06
233,Yar-Sale,66.83,70.83,29.46,85,100,24.36,RU,2020-02-23 15:39:17,overcast clouds,0.0,0.0
234,Kahului,20.89,-156.47,66.2,82,20,8.05,US,2020-02-23 15:39:17,few clouds,0.0,0.0
235,Bandar,2.05,99.75,74.97,82,14,0.36,ID,2020-02-23 15:36:00,few clouds,0.0,0.0
236,Maceio,-9.67,-35.74,89.6,62,40,6.93,BR,2020-02-23 15:37:00,scattered clouds,0.0,0.0
237,Batsfjord,70.63,29.72,24.8,85,75,4.7,NO,2020-02-23 15:39:18,broken clouds,0.0,0.0
238,Yatou,37.15,122.38,42.35,83,0,13.02,CN,2020-02-23 15:39:18,clear sky,0.0,0.0
239,Kilis,36.72,37.12,48.2,87,75,9.17,TR,2020-02-23 15:39:18,broken clouds,0.0,0.0
240,Frutal,-20.02,-48.94,79.34,76,73,4.29,BR,2020-02-23 15:39:18,broken clouds,0.0,0.0
241,Itarema,-2.92,-39.92,83.5,81,97,6.78,BR,2020-02-23 15:39:18,light rain,0.88,0.0
242,Santa Luzia,-19.77,-43.85,77.0,73,75,11.41,BR,2020-02-23 15:39:19,broken clouds,0.0,0.0
243,Rio Gallegos,-51.62,-69.22,59.0,41,69,13.87,AR,2020-02-23 15:39:19,broken clouds,0.0,0.0
244,Khash,28.22,61.22,61.25,51,0,11.1,IR,2020-02-23 15:39:19,clear sky,0.0,0.0
245,Mayumba,-3.43,10.66,82.29,82,3,14.03,GA,2020-02-23 15:39:19,light rain,0.25,0.0
246,Aswan,24.09,32.91,73.4,17,100,9.17,EG,2020-02-23 15:39:20,overcast clouds,0.0,0.0
247,Ciudad Bolivar,8.12,-63.55,88.81,43,100,8.48,VE,2020-02-23 15:35:40,overcast clouds,0.0,0.0
248,Carquefou,47.3,-1.49,55.0,93,90,12.75,FR,2020-02-23 15:35:12,overcast clouds,0.0,0.0
249,Teguldet,57.31,88.17,18.37,97,98,2.89,RU,2020-02-23 15:39:21,overcast clouds,0.0,0.0
250,Kyabram,-36.32,145.05,73.0,54,2,6.08,AU,2020-02-23 15:39:22,clear sky,0.0,0.0
251,Cidreira,-30.18,-50.21,70.16,65,0,7.09,BR,2020-02-23 15:39:22,clear sky,0.0,0.0
252,Blagoyevo,63.37,47.92,31.24,88,100,18.19,RU,2020-02-23 15:39:22,light snow,0.0,0.25
253,Chuy,-33.7,-53.46,72.36,56,35,3.49,UY,2020-02-23 15:39:22,scattered clouds,0.0,0.0
254,Tual,-5.67,132.75,82.9,80,63,10.96,ID,2020-02-23 15:39:23,light rain,0.38,0.0
255,Kavaratti,10.57,72.64,82.53,71,88,1.07,IN,2020-02-23 15:36:01,overcast clouds,0.0,0.0
256,Morant Bay,17.88,-76.41,84.2,58,20,3.36,JM,2020-02-23 15:39:24,few clouds,0.0,0.0
257,Ribeira Grande,38.52,-28.7,62.6,67,75,8.05,PT,2020-02-23 15:39:24,broken clouds,0.0,0.0
258,Krasnoarmeysk,51.02,45.7,33.01,91,100,5.01,RU,2020-02-23 15:39:24,light snow,0.0,0.63
259,Hibbing,47.43,-92.94,35.6,92,1,10.29,US,2020-02-23 15:39:24,clear sky,0.0,0.0
260,Husavik,66.04,-17.34,26.78,67,1,10.74,IS,2020-02-23 15:39:24,clear sky,0.0,0.0
261,Gameleira,-8.58,-35.39,87.13,56,79,6.69,BR,2020-02-23 15:39:25,broken clouds,0.0,0.0
262,Anadyr,64.75,177.48,-27.0,74,0,4.47,RU,2020-02-23 15:39:25,clear sky,0.0,0.0
263,Victoria,22.29,114.16,69.01,56,20,16.11,HK,2020-02-23 15:35:24,few clouds,0.0,0.0
264,Avera,33.19,-82.53,52.0,57,1,3.36,US,2020-02-23 15:39:25,clear sky,0.0,0.0
265,Zaysan,47.47,84.87,26.11,97,100,2.48,KZ,2020-02-23 15:39:25,light snow,0.0,0.94
266,Saint-Felicien,48.65,-72.45,34.0,64,75,13.87,CA,2020-02-23 15:39:26,broken clouds,0.0,0.0
267,Hailey,43.52,-114.32,21.2,67,5,10.29,US,2020-02-23 15:39:26,clear sky,0.0,0.0
268,Yakeshi,49.28,120.73,-0.74,100,78,3.44,CN,2020-02-23 15:39:26,broken clouds,0.0,0.0
269,Fort-Shevchenko,44.51,50.26,42.48,83,100,2.1,KZ,2020-02-23 15:39:26,overcast clouds,0.0,0.0
270,Qui Nhon,13.77,109.23,62.85,92,0,3.02,VN,2020-02-23 15:39:26,clear sky,0.0,0.0
271,Penzance,50.12,-5.54,53.01,100,100,17.22,GB,2020-02-23 15:39:27,overcast clouds,0.0,0.0
272,Sechura,-5.56,-80.82,75.13,80,73,4.59,PE,2020-02-23 15:39:27,broken clouds,0.0,0.0
273,Zhicheng,30.3,111.5,57.99,78,38,2.15,CN,2020-02-23 15:39:27,scattered clouds,0.0,0.0
274,Ribas Do Rio Pardo,-20.44,-53.76,72.9,72,74,4.54,BR,2020-02-23 15:39:27,broken clouds,0.0,0.0
275,Filadelfia,39.95,-75.16,51.01,23,1,8.05,US,2020-02-23 15:37:02,clear sky,0.0,0.0
276,Camacha,33.08,-16.33,69.8,82,20,18.34,PT,2020-02-23 15:39:28,few clouds,0.0,0.0
277,Tshela,-4.98,12.93,83.98,70,73,5.59,CD,2020-02-23 15:39:28,broken clouds,0.0,0.0
278,Kerema,-7.96,145.78,76.89,95,100,3.8,PG,2020-02-23 15:39:28,moderate rain,3.75,0.0
279,Barguzin,53.62,109.62,3.45,92,0,2.01,RU,2020-02-23 15:39:29,clear sky,0.0,0.0
280,Manyana,-23.4,21.72,74.35,66,97,7.49,BW,2020-02-23 15:39:29,light rain,1.0,0.0
281,Amuntai,-2.42,115.25,76.73,89,100,1.77,ID,2020-02-23 15:39:29,moderate rain,3.06,0.0
282,Kansk,56.2,95.72,8.47,96,9,2.08,RU,2020-02-23 15:39:29,clear sky,0.0,0.0
283,Ripon,54.14,-1.52,45.0,55,54,24.16,GB,2020-02-23 15:39:29,broken clouds,0.0,0.0
284,Coihaique,-45.58,-72.07,68.0,40,11,6.93,CL,2020-02-23 15:39:30,few clouds,0.0,0.0
285,East London,-33.02,27.91,68.0,64,40,12.75,ZA,2020-02-23 15:39:30,scattered clouds,0.0,0.0
286,Port-Gentil,-0.72,8.78,87.8,79,20,10.29,GA,2020-02-23 15:39:30,few clouds,0.0,0.0
287,Mawlaik,23.63,94.42,67.51,64,7,0.94,MM,2020-02-23 15:39:30,clear sky,0.0,0.0
288,Nikolskoye,59.7,30.79,39.2,80,75,13.42,RU,2020-02-23 15:39:30,broken clouds,0.0,0.0
289,Torrington,41.8,-73.12,48.0,38,1,3.36,US,2020-02-23 15:35:01,clear sky,0.0,0.0
290,Kawalu,-7.38,108.21,72.93,93,96,2.51,ID,2020-02-23 15:39:31,light rain,1.31,0.0
291,Vostok,46.49,135.88,-0.47,95,10,5.75,RU,2020-02-23 15:39:31,clear sky,0.0,0.0
292,Hohhot,40.81,111.65,30.2,54,14,6.71,CN,2020-02-23 15:38:13,few clouds,0.0,0.0
293,Aranos,-24.13,19.12,81.81,45,44,11.74,NA,2020-02-23 15:39:31,scattered clouds,0.0,0.0
294,Greenwood,34.17,-82.12,54.0,49,1,4.7,US,2020-02-23 15:38:57,clear sky,0.0,0.0
295,Nagato,34.38,131.2,42.8,75,0,5.82,JP,2020-02-23 15:39:32,clear sky,0.0,0.0
296,Ilulissat,69.22,-51.1,1.4,49,0,2.24,GL,2020-02-23 15:39:33,clear sky,0.0,0.0
297,Bernalillo,35.05,-106.67,43.0,100,75,11.41,US,2020-02-23 15:39:33,shower rain,0.0,0.0
298,Provideniya,64.38,-173.3,-10.43,80,0,2.66,RU,2020-02-23 15:39:33,clear sky,0.0,0.0
299,Tecoanapa,16.52,-98.75,83.98,49,0,1.21,MX,2020-02-23 15:39:33,clear sky,0.0,0.0
300,Huarmey,-10.07,-78.15,81.9,47,62,6.67,PE,2020-02-23 15:39:33,broken clouds,0.0,0.0
301,Chapais,49.78,-74.85,30.2,74,1,6.93,CA,2020-02-23 15:39:34,clear sky,0.0,0.0
302,Port Hardy,50.7,-127.42,39.2,93,90,23.04,CA,2020-02-23 15:39:34,shower rain,0.0,0.0
303,Tiznit,29.58,-9.5,75.9,11,0,26.53,MA,2020-02-23 15:39:34,clear sky,0.0,0.0
304,La Crosse,43.8,-91.24,37.99,83,1,8.05,US,2020-02-23 15:38:41,clear sky,0.0,0.0
305,Vila,42.03,-8.16,73.0,53,0,2.68,PT,2020-02-23 15:39:35,clear sky,0.0,0.0
306,Lethem,3.38,-59.8,94.21,40,3,15.77,GY,2020-02-23 15:39:35,clear sky,0.0,0.0
307,Comodoro Rivadavia,-45.87,-67.5,68.0,56,3,8.05,AR,2020-02-23 15:39:35,clear sky,0.0,0.0
308,Ancud,-41.87,-73.82,60.8,72,75,10.29,CL,2020-02-23 15:39:36,broken clouds,0.0,0.0
309,Airai,-8.93,125.41,67.93,88,100,2.86,TL,2020-02-23 15:39:36,light rain,0.31,0.0
310,Uvarovo,51.98,42.26,31.6,97,100,17.63,RU,2020-02-23 15:39:36,light snow,0.0,0.75
311,Emerald,-23.53,148.17,75.2,94,90,11.41,AU,2020-02-23 15:39:37,overcast clouds,0.0,0.0
312,Baoding,38.85,115.49,42.78,35,0,6.91,CN,2020-02-23 15:39:37,clear sky,0.0,0.0
313,Nanortalik,60.14,-45.24,28.42,74,100,3.58,GL,2020-02-23 15:39:37,light snow,0.0,0.56
314,Saint-Francois,46.42,3.91,64.99,45,87,8.05,FR,2020-02-23 15:39:38,overcast clouds,0.0,0.0
315,Mount Gambier,-37.83,140.77,55.4,100,100,8.05,AU,2020-02-23 15:39:38,overcast clouds,0.0,0.0
316,Hamadan,34.8,48.51,50.0,39,40,6.93,IR,2020-02-23 15:39:00,scattered clouds,0.0,0.0
317,Celestun,20.87,-90.4,69.37,72,14,11.27,MX,2020-02-23 15:39:38,few clouds,0.0,0.0
318,Back Mountain,41.34,-76.0,45.0,26,1,9.17,US,2020-02-23 15:39:39,clear sky,0.0,0.0
319,Marawi,8.0,124.29,77.0,86,46,7.0,PH,2020-02-23 15:39:39,scattered clouds,0.0,0.0
320,Santa Maria,-29.68,-53.81,73.4,64,40,12.75,BR,2020-02-23 15:39:39,scattered clouds,0.0,0.0
321,Shepsi,44.04,39.15,44.69,73,100,11.43,RU,2020-02-23 15:39:39,overcast clouds,0.0,0.0
322,Anupgarh,29.19,73.21,71.13,36,0,2.59,IN,2020-02-23 15:39:39,clear sky,0.0,0.0
323,Westport,41.14,-73.36,50.0,41,1,8.05,US,2020-02-23 15:39:40,clear sky,0.0,0.0
324,Bathsheba,13.22,-59.52,86.0,70,75,17.22,BB,2020-02-23 15:39:40,shower rain,0.0,0.0
325,Isangel,-19.55,169.27,71.6,88,20,18.05,VU,2020-02-23 15:39:40,few clouds,0.0,0.0
326,Saumur,47.33,-0.25,54.0,87,90,16.11,FR,2020-02-23 15:39:40,overcast clouds,0.0,0.0
327,Santa Fe,-31.63,-60.7,82.0,42,0,5.01,AR,2020-02-23 15:35:23,clear sky,0.0,0.0
328,Sungurlu,40.17,34.37,33.1,92,66,3.22,TR,2020-02-23 15:39:41,broken clouds,0.0,0.0
329,Mareeba,-17.0,145.43,78.8,94,90,3.36,AU,2020-02-23 15:39:41,overcast clouds,0.0,0.0
330,Myitkyina,25.38,97.4,60.58,91,100,3.6,MM,2020-02-23 15:39:41,light rain,1.13,0.0
331,Turayf,31.67,38.66,62.6,39,85,18.34,SA,2020-02-23 15:39:42,overcast clouds,0.0,0.0
332,Fortuna,40.6,-124.16,48.0,87,90,0.87,US,2020-02-23 15:39:42,overcast clouds,0.0,0.0
333,Tuatapere,-46.13,167.68,55.0,87,53,4.0,NZ,2020-02-23 15:39:42,broken clouds,0.0,0.0
334,Oranjemund,-28.55,16.43,82.36,35,0,22.66,NA,2020-02-23 15:39:42,clear sky,0.0,0.0
335,Two Rivers,44.15,-87.57,37.4,74,1,5.82,US,2020-02-23 15:39:42,clear sky,0.0,0.0
336,Te Anau,-45.42,167.72,47.98,84,38,5.88,NZ,2020-02-23 15:39:43,scattered clouds,0.0,0.0
337,Aktau,43.65,51.2,44.6,87,75,2.24,KZ,2020-02-23 15:37:51,broken clouds,0.0,0.0
338,Bima,-8.47,118.72,73.06,96,100,2.08,ID,2020-02-23 15:39:43,overcast clouds,0.0,0.0
339,Borogontsy,62.67,131.17,-10.17,98,93,2.68,RU,2020-02-23 15:39:43,overcast clouds,0.0,0.0
340,Klaksvik,62.23,-6.59,35.6,69,62,11.41,FO,2020-02-23 15:39:43,light rain,0.0,0.0
341,San Vicente,-26.62,-54.13,79.0,67,100,1.01,AR,2020-02-23 15:39:44,overcast clouds,0.0,0.0
342,Picos,-7.08,-41.47,86.54,65,93,2.62,BR,2020-02-23 15:39:24,overcast clouds,0.0,0.0
343,Matoury,4.85,-52.33,82.4,78,90,17.22,GF,2020-02-23 15:39:44,light rain,0.0,0.0
344,San Carlos De Bariloche,-41.15,-71.31,71.6,28,0,20.8,AR,2020-02-23 15:36:24,clear sky,0.0,0.0
345,Nioki,-2.72,17.68,94.6,44,100,2.68,CD,2020-02-23 15:39:44,overcast clouds,0.0,0.0
346,Petropavlovskaya,45.08,40.45,42.66,74,98,11.63,RU,2020-02-23 15:39:45,overcast clouds,0.0,0.0
347,Sierra Vista,31.55,-110.3,46.99,70,1,13.87,US,2020-02-23 15:39:45,clear sky,0.0,0.0
348,Gorontalo,0.54,123.06,74.35,90,30,4.16,ID,2020-02-23 15:39:45,scattered clouds,0.0,0.0
349,Luganville,-15.53,167.17,80.6,78,20,5.82,VU,2020-02-23 15:39:45,few clouds,0.0,0.0
350,Vila Franca Do Campo,37.72,-25.43,62.6,77,20,11.41,PT,2020-02-23 15:39:45,few clouds,0.0,0.0
351,Puqi,29.72,113.88,59.11,80,36,3.18,CN,2020-02-23 15:39:46,scattered clouds,0.0,0.0
352,Skovorodino,53.98,123.92,7.74,96,100,2.82,RU,2020-02-23 15:39:46,light snow,0.0,0.13
353,Flin Flon,54.77,-101.86,26.6,79,75,9.17,CA,2020-02-23 15:39:46,broken clouds,0.0,0.0
354,Mogwase,-25.18,27.27,81.66,45,89,22.12,ZA,2020-02-23 15:39:46,light rain,0.38,0.0
355,Semnan,35.57,53.4,56.5,42,0,10.07,IR,2020-02-23 15:39:46,clear sky,0.0,0.0
356,Boende,-0.22,20.87,92.97,41,83,1.07,CD,2020-02-23 15:39:47,broken clouds,0.0,0.0
357,Puerto Colombia,10.99,-74.95,82.4,69,40,16.11,CO,2020-02-23 15:39:47,scattered clouds,0.0,0.0
358,Vestmannaeyjar,63.44,-20.27,33.8,74,75,23.04,IS,2020-02-23 15:39:47,broken clouds,0.0,0.0
359,Chongwe,-15.33,28.68,77.2,86,87,1.92,ZM,2020-02-23 15:39:47,light rain,2.81,0.0
360,Ganzhou,28.82,115.43,55.81,80,67,2.82,CN,2020-02-23 15:39:47,broken clouds,0.0,0.0
361,Sabang,5.89,95.32,83.48,75,0,21.0,ID,2020-02-23 15:39:48,clear sky,0.0,0.0
362,Huescar,37.81,-2.54,68.0,33,0,5.01,ES,2020-02-23 15:39:48,clear sky,0.0,0.0
363,Xingyi,24.19,102.82,50.88,94,17,4.05,CN,2020-02-23 15:39:48,few clouds,0.0,0.0
364,Jamsa,61.86,25.19,37.0,74,90,10.29,FI,2020-02-23 15:39:49,light rain,0.0,0.0
365,Kenora,49.82,-94.43,24.8,73,20,10.29,CA,2020-02-23 15:39:49,few clouds,0.0,0.0
366,Prince Rupert,54.32,-130.32,35.6,64,90,2.24,CA,2020-02-23 15:36:26,overcast clouds,0.0,0.0
367,Isla Vista,34.41,-119.86,51.8,93,1,4.5,US,2020-02-23 15:39:49,clear sky,0.0,0.0
368,Kayerkan,69.35,87.76,14.0,85,75,29.08,RU,2020-02-23 15:39:49,shower snow,0.0,0.0
369,San Cristobal,7.77,-72.22,75.2,83,75,4.7,VE,2020-02-23 15:39:50,fog,0.0,0.0
370,Laguna,38.42,-121.42,48.99,87,1,4.7,US,2020-02-23 15:39:17,clear sky,0.0,0.0
371,Leningradskiy,69.38,178.42,-12.17,80,100,7.09,RU,2020-02-23 15:39:50,overcast clouds,0.0,0.0
372,Vitim,59.45,112.56,14.86,96,100,4.34,RU,2020-02-23 15:39:50,light snow,0.0,0.31
373,Pevek,69.7,170.31,-10.8,97,100,3.0,RU,2020-02-23 15:39:50,light snow,0.0,0.13
374,Harer,9.31,42.13,70.75,49,64,15.97,ET,2020-02-23 15:39:51,broken clouds,0.0,0.0
375,Mayo,38.89,-76.51,52.0,45,1,5.82,US,2020-02-23 15:39:51,clear sky,0.0,0.0
376,Khuzdar,27.74,66.64,64.06,32,41,3.85,PK,2020-02-23 15:36:14,scattered clouds,0.0,0.0
377,Pullman,46.73,-117.18,41.0,80,40,5.82,US,2020-02-23 15:38:34,scattered clouds,0.0,0.0
378,Hami,42.8,93.45,31.86,52,57,3.91,CN,2020-02-23 15:39:51,broken clouds,0.0,0.0
379,Kassala,15.45,36.4,93.52,18,17,13.33,SD,2020-02-23 15:39:52,few clouds,0.0,0.0
380,Ayan,56.45,138.17,-1.77,76,63,3.44,RU,2020-02-23 15:39:52,broken clouds,0.0,0.0
381,Hofn,64.25,-15.21,35.6,34,20,16.11,IS,2020-02-23 15:39:52,few clouds,0.0,0.0
382,Bumba,2.18,22.47,97.99,21,50,5.7,CD,2020-02-23 15:39:52,scattered clouds,0.0,0.0
383,Aflao,6.12,1.19,91.4,66,20,12.75,TG,2020-02-23 15:39:53,few clouds,0.0,0.0
384,Acajutla,13.59,-89.83,81.34,56,0,0.58,SV,2020-02-23 15:38:13,clear sky,0.0,0.0
385,Kirakira,-10.45,161.92,77.34,88,2,6.13,SB,2020-02-23 15:39:53,clear sky,0.0,0.0
386,Aitape,-3.14,142.35,82.47,81,100,14.36,PG,2020-02-23 15:39:53,light rain,0.81,0.0
387,Gao,16.64,1.64,98.49,6,33,17.85,ML,2020-02-23 15:39:54,scattered clouds,0.0,0.0
388,Belmopan,17.25,-88.77,71.6,73,35,6.93,BZ,2020-02-23 15:35:43,scattered clouds,0.0,0.0
389,Samarai,-10.62,150.67,77.92,89,1,1.99,PG,2020-02-23 15:39:54,light rain,1.13,0.0
390,Kodiak,57.79,-152.41,17.6,40,1,26.4,US,2020-02-23 15:39:54,clear sky,0.0,0.0
391,Tadine,-21.55,167.88,75.27,79,34,9.17,NC,2020-02-23 15:39:55,scattered clouds,0.0,0.0
392,High Level,58.52,-117.14,17.6,67,5,4.7,CA,2020-02-23 15:39:55,clear sky,0.0,0.0
393,Zhangye,38.93,100.45,37.06,33,57,10.89,CN,2020-02-23 15:39:55,broken clouds,0.0,0.0
394,Sinnamary,5.38,-52.95,79.39,82,71,16.73,GF,2020-02-23 15:39:55,light rain,0.38,0.0
395,Savannah Bight,16.45,-85.85,76.93,67,96,12.64,HN,2020-02-23 15:39:55,overcast clouds,0.0,0.0
396,Bardiyah,31.76,25.09,55.45,66,23,19.24,LY,2020-02-23 15:39:56,light rain,0.69,0.0
397,Fairbanks,64.84,-147.72,-4.0,83,90,3.36,US,2020-02-23 15:37:51,light snow,0.0,0.0
398,Road Town,18.42,-64.62,81.0,65,20,11.41,VG,2020-02-23 15:39:57,few clouds,0.0,0.0
399,Chato,-2.64,31.77,77.97,65,100,7.85,TZ,2020-02-23 15:39:58,overcast clouds,0.0,0.0
400,Veraval,20.9,70.37,73.18,52,0,1.59,IN,2020-02-23 15:39:58,clear sky,0.0,0.0
401,Emba,48.83,58.14,21.99,93,100,8.3,KZ,2020-02-23 15:39:59,overcast clouds,0.0,0.0
402,Benguela,-12.58,13.41,87.8,62,75,9.17,AO,2020-02-23 15:39:59,broken clouds,0.0,0.0
403,Ishigaki,24.34,124.16,68.7,75,100,16.11,JP,2020-02-23 15:39:59,overcast clouds,0.0,0.0
404,De Aar,-30.65,24.01,77.77,18,0,16.96,ZA,2020-02-23 15:39:59,clear sky,0.0,0.0
405,Coahuayana,18.73,-103.68,73.4,69,20,3.36,MX,2020-02-23 15:39:59,few clouds,0.0,0.0
406,San Jose,37.34,-121.89,51.8,81,75,3.36,US,2020-02-23 15:35:00,broken clouds,0.0,0.0
407,General Roca,-39.03,-67.58,77.0,47,0,5.82,AR,2020-02-23 15:40:00,clear sky,0.0,0.0
408,Taoudenni,22.68,-3.98,96.3,5,61,16.37,ML,2020-02-23 15:40:00,broken clouds,0.0,0.0
409,Sangar,63.92,127.47,-10.82,99,98,1.1,RU,2020-02-23 15:40:00,overcast clouds,0.0,0.0
410,Ipixuna,-1.76,-48.8,86.0,62,75,10.29,BR,2020-02-23 15:40:01,broken clouds,0.0,0.0
411,Lohja,60.25,24.07,39.2,69,75,13.87,FI,2020-02-23 15:40:01,shower rain,0.0,0.0
412,Bambous Virieux,-20.34,57.76,80.6,83,75,1.61,MU,2020-02-23 15:40:01,shower rain,0.0,0.0
413,Parry Sound,45.35,-80.03,37.0,81,91,7.0,CA,2020-02-23 15:39:30,overcast clouds,0.0,0.0
414,Ostrovnoy,68.05,39.51,31.8,94,100,21.3,RU,2020-02-23 15:40:02,light snow,0.0,1.13
415,Kaduna,10.52,7.44,96.1,7,3,12.5,NG,2020-02-23 15:40:02,clear sky,0.0,0.0
416,Ayagoz,47.97,80.44,13.64,94,99,6.89,KZ,2020-02-23 15:40:02,light snow,0.0,0.19
417,Northam,51.03,-4.22,53.6,71,40,16.11,GB,2020-02-23 15:40:03,scattered clouds,0.0,0.0
418,Caravelas,-17.71,-39.25,79.92,86,99,19.42,BR,2020-02-23 15:40:03,moderate rain,5.25,0.0
419,Bykivka,50.29,27.98,40.87,70,99,15.84,UA,2020-02-23 15:40:03,overcast clouds,0.0,0.0
420,Humaita,-7.51,-63.02,76.15,94,100,1.34,BR,2020-02-23 15:40:03,overcast clouds,0.0,0.0
421,Axim,4.87,-2.24,88.54,66,100,3.8,GH,2020-02-23 15:40:03,light rain,2.88,0.0
422,Bobrovka,54.05,61.75,14.54,94,0,8.14,RU,2020-02-23 15:40:04,clear sky,0.0,0.0
423,Dabat,12.98,37.77,77.72,18,14,2.62,ET,2020-02-23 15:40:04,few clouds,0.0,0.0
424,Aykhal,66.0,111.5,3.2,84,100,4.47,RU,2020-02-23 15:40:04,overcast clouds,0.0,0.0
425,Altay,47.87,88.12,13.95,97,100,0.89,CN,2020-02-23 15:40:04,light snow,0.0,0.5
426,Jining,35.41,116.58,50.86,65,9,9.42,CN,2020-02-23 15:40:04,clear sky,0.0,0.0
427,Cachoeiras De Macacu,-22.46,-42.65,80.6,65,75,6.93,BR,2020-02-23 15:40:05,broken clouds,0.0,0.0
428,Malartic,48.13,-78.13,30.99,100,75,8.05,CA,2020-02-23 15:40:05,mist,0.0,0.0
429,Singaraja,-8.11,115.09,83.5,73,62,2.93,ID,2020-02-23 15:40:06,broken clouds,0.0,0.0
430,Batagay-Alyta,67.8,130.41,-18.54,88,68,2.91,RU,2020-02-23 15:40:06,broken clouds,0.0,0.0
431,Kavieng,-2.57,150.8,84.61,70,79,9.82,PG,2020-02-23 15:40:06,broken clouds,0.0,0.0
432,Gizo,-8.1,156.84,77.65,89,49,5.08,SB,2020-02-23 15:40:07,scattered clouds,0.0,0.0
433,Tautira,-17.73,-149.15,77.0,78,34,2.24,PF,2020-02-23 15:40:07,light rain,0.25,0.0
434,Matara,5.95,80.54,76.46,89,99,8.41,LK,2020-02-23 15:37:19,light rain,0.38,0.0
435,Namibe,-15.2,12.15,74.98,82,100,11.36,AO,2020-02-23 15:40:07,overcast clouds,0.0,0.0
436,Ahipara,-35.17,173.17,57.99,100,0,19.37,NZ,2020-02-23 15:40:08,clear sky,0.0,0.0
437,Buzmeyin,38.05,58.21,55.4,71,75,4.7,TM,2020-02-23 15:40:08,broken clouds,0.0,0.0
438,Manado,1.49,124.85,77.0,94,40,2.24,ID,2020-02-23 15:40:08,scattered clouds,0.0,0.0
439,Guerrero Negro,27.98,-114.06,57.85,74,100,13.56,MX,2020-02-23 15:40:08,overcast clouds,0.0,0.0
440,Nadym,65.53,72.52,25.95,90,92,22.32,RU,2020-02-23 15:40:08,overcast clouds,0.0,0.0
441,Tonj,7.27,28.68,101.62,8,33,6.08,SS,2020-02-23 15:40:09,scattered clouds,0.0,0.0
442,Necochea,-38.55,-58.74,77.0,20,0,8.01,AR,2020-02-23 15:40:09,clear sky,0.0,0.0
443,Buta,2.79,24.73,96.46,19,67,1.41,CD,2020-02-23 15:40:09,broken clouds,0.0,0.0
444,Carlyle,38.61,-89.37,48.99,57,1,8.05,US,2020-02-23 15:40:09,clear sky,0.0,0.0
445,Hobyo,5.35,48.53,78.33,68,14,18.72,SO,2020-02-23 15:40:10,few clouds,0.0,0.0
446,Pangnirtung,66.15,-65.71,-32.13,95,99,2.64,CA,2020-02-23 15:40:10,overcast clouds,0.0,0.0
447,Wuxue,29.85,115.55,55.81,82,14,7.96,CN,2020-02-23 15:40:10,few clouds,0.0,0.0
448,Praya,14.92,-23.51,75.2,60,90,20.8,CV,2020-02-23 15:40:10,overcast clouds,0.0,0.0
449,Minab,27.15,57.08,73.4,83,33,9.17,IR,2020-02-23 15:40:11,mist,0.0,0.0
450,Uglegorsk,49.08,142.03,14.95,83,83,14.9,RU,2020-02-23 15:40:11,broken clouds,0.0,0.0
451,Kota Kinabalu,5.97,116.07,80.01,78,20,3.36,MY,2020-02-23 15:37:18,few clouds,0.0,0.0
452,Qaqortoq,60.72,-46.03,24.8,68,100,4.7,GL,2020-02-23 15:40:11,light snow,0.0,0.75
453,Nishihara,26.18,127.76,62.6,67,20,3.36,JP,2020-02-23 15:40:11,few clouds,0.0,0.0
454,Goderich,43.75,-81.72,39.0,73,84,14.0,CA,2020-02-23 15:40:12,broken clouds,0.0,0.0
455,Tura,25.52,90.22,69.69,46,0,3.67,IN,2020-02-23 15:40:12,clear sky,0.0,0.0
456,Kuryk,43.2,51.65,47.5,90,91,7.43,KZ,2020-02-23 15:40:12,overcast clouds,0.0,0.0
457,Halifax,44.65,-63.57,43.0,59,20,10.29,CA,2020-02-23 15:39:00,few clouds,0.0,0.0
458,Kraskino,42.71,130.78,37.78,56,100,13.67,RU,2020-02-23 15:40:12,overcast clouds,0.0,0.0
459,Wukari,7.85,9.78,104.52,7,0,10.36,NG,2020-02-23 15:40:13,clear sky,0.0,0.0
460,Choya,52.01,86.55,19.36,97,100,1.57,RU,2020-02-23 15:40:13,light snow,0.0,0.56
461,Kampot,10.62,104.18,82.4,65,30,5.82,KH,2020-02-23 15:40:13,scattered clouds,0.0,0.0
462,Dutlwe,-23.98,23.9,75.43,65,83,17.36,BW,2020-02-23 15:40:14,light rain,1.06,0.0
463,Ballarat,-37.57,143.85,62.01,84,45,2.68,AU,2020-02-23 15:40:14,scattered clouds,0.0,0.0
464,Karratha,-20.74,116.85,81.77,79,0,15.48,AU,2020-02-23 15:38:27,clear sky,0.0,0.0
465,Lagoa,39.05,-27.98,59.11,71,30,5.79,PT,2020-02-23 15:40:14,scattered clouds,0.0,0.0
466,San Andres,12.58,-81.7,84.2,62,20,5.82,CO,2020-02-23 15:39:15,few clouds,0.0,0.0
467,Morbach,49.82,7.12,55.99,93,90,28.86,DE,2020-02-23 15:40:15,light rain,0.0,0.0
468,Licheng,23.3,113.83,73.99,68,57,2.24,CN,2020-02-23 15:40:15,broken clouds,0.0,0.0
469,Margate,51.38,1.39,54.0,71,40,19.46,GB,2020-02-23 15:37:33,light rain,0.0,0.0
470,San Quintin,30.48,-115.95,56.23,72,0,11.54,MX,2020-02-23 15:40:15,clear sky,0.0,0.0
471,Bonavista,48.65,-53.11,34.0,77,39,15.99,CA,2020-02-23 15:40:16,scattered clouds,0.0,0.0
472,Banavar,13.41,76.17,73.81,25,67,5.86,IN,2020-02-23 15:40:16,broken clouds,0.0,0.0
473,Arica,-18.48,-70.3,80.6,57,100,9.17,CL,2020-02-23 15:40:16,overcast clouds,0.0,0.0
474,Chimoio,-19.12,33.48,80.19,82,100,5.68,MZ,2020-02-23 15:40:17,light rain,1.06,0.0
475,Bari,41.12,16.85,61.0,54,94,6.93,IT,2020-02-23 15:40:00,overcast clouds,0.0,0.0
476,La Paz,-16.5,-68.15,55.4,54,40,5.82,BO,2020-02-23 15:39:16,scattered clouds,0.0,0.0
477,Matay,28.42,30.78,62.76,36,97,5.55,EG,2020-02-23 15:40:18,overcast clouds,0.0,0.0
478,Umm Kaddadah,13.6,26.69,86.77,9,0,14.76,SD,2020-02-23 15:40:18,clear sky,0.0,0.0
479,Krasnoselkup,65.7,82.47,18.19,93,99,21.18,RU,2020-02-23 15:40:18,light snow,0.0,0.13
480,Bonthe,7.53,-12.51,90.84,58,3,13.73,SL,2020-02-23 15:40:18,clear sky,0.0,0.0
481,Beidao,34.57,105.89,41.18,80,54,3.71,CN,2020-02-23 15:40:19,broken clouds,0.0,0.0
482,Concepcion Del Oro,24.63,-101.42,62.11,40,98,6.2,MX,2020-02-23 15:40:19,overcast clouds,0.0,0.0
483,Doljo,9.59,123.73,82.4,83,40,6.93,PH,2020-02-23 15:40:19,scattered clouds,0.0,0.0
484,Poya,-21.35,165.15,78.85,79,75,10.65,NC,2020-02-23 15:40:19,broken clouds,0.0,0.0
485,Nabinagar,23.89,90.97,75.2,64,40,6.93,BD,2020-02-23 15:40:20,haze,0.0,0.0
486,Luanda,-8.84,13.23,84.2,74,75,11.41,AO,2020-02-23 15:40:20,broken clouds,0.0,0.0
487,Hay River,60.82,-115.8,1.4,84,90,4.7,CA,2020-02-23 15:40:20,light snow,0.0,0.0
488,Abu Dhabi,24.47,54.37,78.8,73,6,8.05,AE,2020-02-23 15:40:20,clear sky,0.0,0.0
489,Portland,45.52,-122.68,48.99,81,90,23.04,US,2020-02-23 15:38:40,light rain,0.0,0.0
490,Koutiala,12.39,-5.46,104.11,7,0,11.97,ML,2020-02-23 15:40:21,clear sky,0.0,0.0
491,Chacabuco,-34.64,-60.47,75.0,63,30,8.01,AR,2020-02-23 15:40:21,scattered clouds,0.0,0.0
492,Grants,35.15,-107.85,33.8,86,90,25.48,US,2020-02-23 15:36:05,overcast clouds,0.0,0.0
493,Saint-Denis,48.92,2.33,57.2,76,90,18.34,FR,2020-02-23 15:40:22,overcast clouds,0.0,0.0
494,Clyde River,70.47,-68.59,-23.8,74,1,17.22,CA,2020-02-23 15:40:22,clear sky,0.0,0.0
495,Makokou,0.57,12.86,85.23,64,100,2.64,GA,2020-02-23 15:40:23,light rain,2.44,0.0
496,Brownwood,31.71,-98.99,55.4,81,90,14.05,US,2020-02-23 15:40:23,overcast clouds,0.0,0.0
497,Chatrapur,19.35,84.98,71.13,71,0,3.78,IN,2020-02-23 15:40:23,clear sky,0.0,0.0
498,Sao Joao De Pirabas,-0.77,-47.18,86.99,67,100,4.83,BR,2020-02-23 15:40:23,light rain,0.19,0.0
499,Bandarbeyla,9.49,50.81,78.82,74,91,16.87,SO,2020-02-23 15:40:24,overcast clouds,0.0,0.0
500,Kattivakkam,13.22,80.32,82.0,78,40,9.17,IN,2020-02-23 15:40:24,scattered clouds,0.0,0.0
501,Arauca,7.08,-70.76,86.0,48,40,6.93,CO,2020-02-23 15:40:24,scattered clouds,0.0,0.0
502,Kuusamo,65.97,29.18,30.2,100,75,10.29,FI,2020-02-23 15:40:24,broken clouds,0.0,0.0
503,Youkounkoun,12.53,-13.13,107.98,12,61,3.15,GN,2020-02-23 15:40:24,broken clouds,0.0,0.0
504,Hit,33.64,42.83,66.15,42,26,6.4,IQ,2020-02-23 15:40:25,scattered clouds,0.0,0.0
505,Kidal,18.44,1.41,93.04,7,0,11.56,ML,2020-02-23 15:40:25,clear sky,0.0,0.0
506,Tsiroanomandidy,-18.77,46.03,74.59,90,100,4.07,MG,2020-02-23 15:40:25,moderate rain,5.44,0.0
507,Nome,64.5,-165.41,-0.4,84,90,13.87,US,2020-02-23 15:40:25,mist,0.0,0.0
508,Bundaberg,-24.85,152.35,73.0,88,75,6.93,AU,2020-02-23 15:40:25,broken clouds,0.0,0.0
509,San Borja,-14.82,-66.85,80.76,45,38,4.97,BO,2020-02-23 15:40:26,scattered clouds,0.0,0.0
510,Kasongo,-4.45,26.67,82.26,86,100,2.57,CD,2020-02-23 15:40:26,light rain,3.0,0.0
511,Kiunga,-6.12,141.29,74.88,98,100,3.78,PG,2020-02-23 15:40:26,moderate rain,5.38,0.0
512,Geraldton,-28.77,114.6,73.4,88,40,5.82,AU,2020-02-23 15:40:26,scattered clouds,0.0,0.0
513,Hovd,48.01,91.64,22.89,57,100,1.88,MN,2020-02-23 15:40:27,overcast clouds,0.0,0.0
514,Boueni,-12.9,45.08,82.4,83,99,4.7,YT,2020-02-23 15:40:27,light rain,1.13,0.0
515,Never,46.99,3.16,57.2,67,90,10.29,FR,2020-02-23 15:40:27,overcast clouds,0.0,0.0
516,Colquechaca,-18.67,-66.02,55.44,69,19,5.86,BO,2020-02-23 15:40:27,few clouds,0.0,0.0
517,Arlit,18.74,7.39,91.36,9,83,7.31,NE,2020-02-23 15:40:28,broken clouds,0.0,0.0
518,Tymovskoye,50.85,142.66,-2.0,95,28,3.24,RU,2020-02-23 15:40:28,scattered clouds,0.0,0.0
519,Barra Do Garcas,-15.89,-52.26,84.2,70,75,6.93,BR,2020-02-23 15:39:02,broken clouds,0.0,0.0
520,Erdaojiang,41.78,126.03,19.44,91,0,5.86,CN,2020-02-23 15:40:28,clear sky,0.0,0.0
521,Safford,32.83,-109.71,45.0,81,90,11.41,US,2020-02-23 15:40:28,overcast clouds,0.0,0.0
522,Ajdabiya,30.76,20.23,58.64,64,0,25.9,LY,2020-02-23 15:40:29,clear sky,0.0,0.0
523,Sabratah,32.79,12.49,58.73,60,0,2.51,LY,2020-02-23 15:40:29,clear sky,0.0,0.0
524,Kaspiyskiy,45.39,47.37,41.36,74,98,4.14,RU,2020-02-23 15:40:29,overcast clouds,0.0,0.0
525,Boissevain,49.23,-100.06,30.2,68,1,19.46,CA,2020-02-23 15:40:29,clear sky,0.0,0.0
526,Cabedelo,-6.98,-34.83,91.4,59,40,8.05,BR,2020-02-23 15:37:21,scattered clouds,0.0,0.0
527,Yulara,-25.24,130.99,78.8,12,0,6.93,AU,2020-02-23 15:40:30,clear sky,0.0,0.0
528,Niquelandia,-14.47,-48.46,85.05,65,73,2.13,BR,2020-02-23 15:40:30,broken clouds,0.0,0.0
529,Rocha,-34.48,-54.33,77.2,37,0,4.14,UY,2020-02-23 15:40:30,clear sky,0.0,0.0
530,Nabire,-3.37,135.48,73.87,99,100,1.32,ID,2020-02-23 15:38:47,moderate rain,5.06,0.0
531,Asbe Teferi,9.08,40.87,70.21,58,27,9.4,ET,2020-02-23 15:40:31,light rain,0.19,0.0
532,Nacala,-14.54,40.67,82.49,89,84,4.34,MZ,2020-02-23 15:40:31,moderate rain,4.38,0.0
533,Diffa,13.32,12.61,91.11,9,0,17.92,NE,2020-02-23 15:40:31,clear sky,0.0,0.0
534,Havelock,34.88,-76.9,55.0,43,1,3.36,US,2020-02-23 15:38:06,clear sky,0.0,0.0
535,Nicoya,10.15,-85.45,87.8,43,12,20.8,CR,2020-02-23 15:40:32,few clouds,0.0,0.0
536,Rudraprayag,30.28,78.98,40.57,71,98,5.26,IN,2020-02-23 15:40:32,light rain,0.69,0.0
537,Altayskoye,51.95,85.33,18.0,96,98,2.1,RU,2020-02-23 15:40:33,light snow,0.0,0.38
538,Huautla,21.03,-98.28,62.71,78,9,1.95,MX,2020-02-23 15:40:34,clear sky,0.0,0.0
539,Tharad,24.4,71.63,75.18,30,0,8.75,IN,2020-02-23 15:40:34,clear sky,0.0,0.0
540,Melfi,41.0,15.65,64.4,39,87,14.99,IT,2020-02-23 15:40:34,overcast clouds,0.0,0.0
541,Waitati,-45.75,170.57,57.99,79,88,4.14,NZ,2020-02-23 15:40:34,overcast clouds,0.0,0.0
542,Khingansk,49.12,131.18,10.26,84,100,1.81,RU,2020-02-23 15:40:35,overcast clouds,0.0,0.0
543,Kroya,-7.63,109.25,76.41,91,71,3.24,ID,2020-02-23 15:40:35,light rain,0.19,0.0
544,Adrar,20.5,-10.07,95.7,6,94,20.4,MR,2020-02-23 15:40:35,overcast clouds,0.0,0.0
545,Batemans Bay,-35.72,150.18,68.0,88,96,1.01,AU,2020-02-23 15:40:35,overcast clouds,0.0,0.0
546,Vao,-22.67,167.48,78.1,74,100,13.33,NC,2020-02-23 15:40:35,light rain,0.13,0.0
547,Touho,-20.78,165.23,70.47,90,85,4.03,NC,2020-02-23 15:40:36,light rain,0.19,0.0
548,Lufilufi,-13.87,-171.6,79.32,87,100,18.59,WS,2020-02-23 15:40:36,light rain,1.44,0.0
549,Manaus,-3.1,-60.02,86.0,74,75,6.93,BR,2020-02-23 15:40:36,broken clouds,0.0,0.0
